{
  "vehicles": [
    {
      "id": 1,
      "category": "Грузовые",
      "driverName": "Иванов Иван",
      "driverPhoneNumber": "+79123456789",
      "location": {
        "latitude": 59.9321,
        "longitude": 30.3609
      }
    },
    {
      "id": 2,
      "category": "Спецтранспорт",
      "driverName": "Петров Петр",
      "driverPhoneNumber": "+79123456780",
      "location": {
        "latitude": 59.9415,
        "longitude": 30.2934
      }
    },
    {
      "id": 3,
      "category": "Легковые",
      "driverName": "Сидоров Алексей",
      "driverPhoneNumber": "+79123456781",
      "location": {
        "latitude": 59.939,
        "longitude": 30.3882
      }
    },
    {
      "id": 4,
      "category": "Грузовые",
      "driverName": "Николаев Николай",
      "driverPhoneNumber": "+79123456782",
      "location": {
        "latitude": 59.9347,
        "longitude": 30.3131
      }
    },
    {
      "id": 5,
      "category": "Легковые",
      "driverName": "Смирнова Елена",
      "driverPhoneNumber": "+79123456783",
      "location": {
        "latitude": 59.9372,
        "longitude": 30.3296
      }
    },
    {
      "id": 6,
      "category": "Спецтранспорт",
      "driverName": "Кузнецов Дмитрий",
      "driverPhoneNumber": "+79123456784",
      "location": {
        "latitude": 59.9318,
        "longitude": 30.3138
      }
    },
    {
      "id": 7,
      "category": "Грузовые",
      "driverName": "Васильев Андрей",
      "driverPhoneNumber": "+79123456785",
      "location": {
        "latitude": 59.9302,
        "longitude": 30.3345
      }
    },
    {
      "id": 8,
      "category": "Грузовые",
      "driverName": "Попова Мария",
      "driverPhoneNumber": "+79123456786",
      "location": {
        "latitude": 59.9336,
        "longitude": 30.3602
      }
    },
    {
      "id": 9,
      "category": "Грузовые",
      "driverName": "Морозов Артем",
      "driverPhoneNumber": "+79123456787",
      "location": {
        "latitude": 59.9325,
        "longitude": 30.3369
      }
    },
    {
      "id": 10,
      "category": "Спецтранспорт",
      "driverName": "Федорова Ольга",
      "driverPhoneNumber": "+79123456788",
      "location": {
        "latitude": 59.9295,
        "longitude": 30.3403
      }
    }
  ]
}
